<?xml version="1.0"?>
<markers>
  <marker>
    <marker_id>3</marker_id>
    <map_id>1</map_id>
    <title></title>
    <address>Calgary</address>
    <desc></desc>
    <pic></pic>
    <icon></icon>
    <linkd></linkd>
    <lat>51.0453246</lat>
    <lng>-114.05810120000001</lng>
    <anim>0</anim>
    <retina>0</retina>
    <category></category>
    <infoopen>0</infoopen>
  </marker>
  <marker>
    <marker_id>4</marker_id>
    <map_id>1</map_id>
    <title></title>
    <address>Vancouver</address>
    <desc></desc>
    <pic></pic>
    <icon></icon>
    <linkd></linkd>
    <lat>49.261226</lat>
    <lng>-123.1139268</lng>
    <anim>0</anim>
    <retina>0</retina>
    <category></category>
    <infoopen>0</infoopen>
  </marker>
  <marker>
    <marker_id>5</marker_id>
    <map_id>1</map_id>
    <title></title>
    <address>Spokane</address>
    <desc></desc>
    <pic></pic>
    <icon></icon>
    <linkd></linkd>
    <lat>47.6587802</lat>
    <lng>-117.4260466</lng>
    <anim>0</anim>
    <retina>0</retina>
    <category></category>
    <infoopen>0</infoopen>
  </marker>
  <marker>
    <marker_id>6</marker_id>
    <map_id>1</map_id>
    <title></title>
    <address>Kobe</address>
    <desc></desc>
    <pic></pic>
    <icon></icon>
    <linkd></linkd>
    <lat>34.690083</lat>
    <lng>135.19551120000006</lng>
    <anim>0</anim>
    <retina>0</retina>
    <category></category>
    <infoopen>0</infoopen>
  </marker>
  <marker>
    <marker_id>7</marker_id>
    <map_id>1</map_id>
    <title></title>
    <address>Nagoya</address>
    <desc></desc>
    <pic></pic>
    <icon></icon>
    <linkd></linkd>
    <lat>35.1814464</lat>
    <lng>136.90639799999997</lng>
    <anim>0</anim>
    <retina>0</retina>
    <category></category>
    <infoopen>0</infoopen>
  </marker>
  <marker>
    <marker_id>8</marker_id>
    <map_id>1</map_id>
    <title></title>
    <address>seattle</address>
    <desc></desc>
    <pic></pic>
    <icon></icon>
    <linkd></linkd>
    <lat>47.6062095</lat>
    <lng>-122.3320708</lng>
    <anim>0</anim>
    <retina>0</retina>
    <category></category>
    <infoopen>0</infoopen>
  </marker>
</markers>
